
{
    "cities": [
        { "state": "California", "name": "Los Angeles", "lon": -118.2437, "lat": 34.0522, "service": true },
        { "state": "California", "name": "San Francisco", "lon": -122.4194, "lat": 37.7749, "service": false },
        { "state": "California", "name": "San Diego", "lon": -117.1611, "lat": 32.7157, "service": true },
        { "state": "Texas", "name": "Houston", "lon": -95.3698, "lat": 29.7604, "service": false },
        { "state": "Texas", "name": "Dallas", "lon": -96.7970, "lat": 32.7767, "service": true },
        { "state": "Texas", "name": "Austin", "lon": -97.7431, "lat": 30.2672, "service": true },
        { "state": "New York", "name": "New York City", "lon": -74.0060, "lat": 40.7128, "service": true },
        { "state": "New York", "name": "Buffalo", "lon": -78.8784, "lat": 42.8864, "service": false },
        { "state": "Florida", "name": "Miami", "lon": -80.1918, "lat": 25.7617, "service": true },
        { "state": "Florida", "name": "Orlando", "lon": -81.3792, "lat": 28.5383, "service": false },
        { "state": "Illinois", "name": "Chicago", "lon": -87.6298, "lat": 41.8781, "service": true }
    ]
}
